City,Lat,Lng,Max Temp,Humidity,Cloudiness,Wind Speed,Country,Date
Punta Arenas,-53.15,-70.92,55.4,35,40,28.86,CL,1603735654
Busselton,-33.65,115.33,55.99,72,6,4.61,AU,1603735655
Vanimo,-2.67,141.3,76.05,75,82,3.13,PG,1603735656
Mayo,38.89,-76.51,59.0,100,90,4.7,US,1603735657
Saint-Philippe,-21.36,55.77,73.4,78,0,3.36,RE,1603735658
Vaini,-21.2,-175.2,71.6,88,20,10.29,TO,1603735659
Bocas del Toro,9.33,-82.25,69.01,87,96,6.64,PA,1603735619
Ushuaia,-54.8,-68.3,59.0,33,40,18.34,AR,1603735662
Menongue,-14.66,17.69,79.39,21,81,0.94,AO,1603735663
Vao,-22.67,167.48,72.97,81,41,15.05,NC,1603735567
Port Elizabeth,-33.92,25.57,64.4,88,90,21.92,ZA,1603735408
New Norfolk,-42.78,147.06,50.0,64,78,1.23,AU,1603735666
Udachny,66.42,112.4,-4.0,91,90,4.47,RU,1603735667
Sosnovo-Ozerskoye,52.52,111.54,18.91,89,14,11.36,RU,1603735670
Garden City,42.33,-83.33,48.99,70,90,9.17,US,1603735385
Codrington,-38.27,141.97,46.47,74,99,12.12,AU,1603735423
Rikitea,-23.12,-134.97,75.38,85,73,18.52,PF,1603735399
Bluff,-46.6,168.33,48.0,87,23,1.99,NZ,1603735674
Salalah,17.02,54.09,80.6,57,0,4.7,OM,1603735658
Atuona,-9.8,-139.03,79.32,72,17,21.83,PF,1603735676
Villa Unión,23.2,-106.23,88.0,66,20,4.09,MX,1603735677
Black Forest,39.01,-104.7,10.0,77,90,9.17,US,1603735679
Bengkulu,-3.8,102.27,75.36,83,100,4.07,ID,1603735681
Longyearbyen,78.22,15.64,21.2,79,75,11.41,SJ,1603735682
Gushi,34.64,109.58,63.66,29,98,1.14,CN,1603735683
Pevek,69.7,170.31,23.56,95,89,10.02,RU,1603735684
Esperance,-33.87,121.9,57.2,87,0,8.05,AU,1603735685
Butaritari,3.07,172.79,81.25,67,99,7.25,KI,1603735687
Pizarro,4.95,-77.37,81.39,79,67,7.34,CO,1603735688
Pangkalanbuun,-2.68,111.62,73.8,95,99,2.53,ID,1603735689
Chui,-33.7,-53.46,60.82,95,100,15.35,UY,1603735690
Port Alfred,-33.59,26.89,65.64,82,100,28.52,ZA,1603735692
Nālūt,30.33,10.85,71.71,22,0,11.1,LY,1603735694
Grindavik,63.84,-22.43,41.0,80,75,18.34,IS,1603735437
Santiago del Estero,-27.8,-64.26,85.64,13,0,6.62,AR,1603735697
George Town,5.41,100.34,77.0,88,20,4.7,MY,1603735698
Chik,54.99,82.43,44.6,81,90,13.42,RU,1603735699
Jamestown,42.1,-79.24,48.0,93,90,6.93,US,1603735508
Hilo,19.73,-155.09,75.2,64,75,7.47,US,1603735401
Uruçuí,-7.23,-44.56,93.67,41,69,2.93,BR,1603735702
Sept-Îles,50.2,-66.38,34.0,59,90,6.93,CA,1603735460
Porto Empedocle,37.29,13.53,61.0,1,4,1.99,IT,1603735704
Lebu,-37.62,-73.65,54.45,66,95,5.57,CL,1603735706
Vila Velha,-20.33,-40.29,80.01,69,40,25.28,BR,1603735448
Albany,42.6,-73.97,48.0,83,100,3.0,US,1603735512
Mataura,-46.19,168.86,48.0,87,29,1.99,NZ,1603735709
Geraldton,-28.77,114.6,55.4,93,40,3.36,AU,1603735710
Qaanaaq,77.48,-69.36,7.84,73,77,9.08,GL,1603735711
Tiksi,71.69,128.87,6.01,93,100,11.01,RU,1603735712
Puerto Ayora,-0.74,-90.35,77.0,73,75,19.46,EC,1603735417
Hithadhoo,-0.6,73.08,83.39,65,0,5.73,MV,1603735714
Sokoto,13.06,5.24,84.36,17,3,5.12,NG,1603735716
Kumul,42.8,93.45,39.56,60,100,2.91,CN,1603735717
Alofi,-19.06,-169.92,68.0,94,90,20.8,NU,1603735718
Hong Kong,22.29,114.16,75.0,82,75,1.01,HK,1603735591
Saskylakh,71.92,114.08,3.65,93,99,5.91,RU,1603735720
Kiryat Gat,31.61,34.76,78.01,100,0,1.99,IL,1603735721
Sandwick,60.0,-1.25,48.2,93,75,4.7,GB,1603735722
Krasnosel'kup,65.7,82.47,0.46,91,0,9.91,RU,1603735723
Ankang,32.68,109.02,57.0,53,100,15.99,CN,1603735725
Kruisfontein,-34.0,24.73,63.0,92,97,7.0,ZA,1603735726
Tuktoyaktuk,69.45,-133.04,6.8,84,75,10.29,CA,1603735727
East London,-33.02,27.91,62.6,93,90,10.29,ZA,1603735728
Barrow,71.29,-156.79,17.6,78,1,2.28,US,1603735550
Raudeberg,61.99,5.14,46.99,89,21,10.78,NO,1603735730
Thinadhoo,0.53,72.93,83.44,68,11,8.55,MV,1603735731
Brigantine,39.41,-74.36,66.2,88,90,4.7,US,1603735732
Avarua,-21.21,-159.78,73.4,78,100,17.22,CK,1603735734
Kavaratti,10.57,72.64,82.69,71,25,5.57,IN,1603735735
Mezen',65.85,44.24,25.23,95,99,11.61,RU,1603735736
Ilulissat,69.22,-51.1,19.4,67,75,5.82,GL,1603735737
Nikolskoye,59.7,30.79,46.99,87,40,6.71,RU,1603735738
Yellowknife,62.46,-114.35,24.8,68,75,8.05,CA,1603735461
Sāveh,35.02,50.36,59.99,32,17,1.63,IR,1603735741
Departamento de Maldonado,-34.67,-54.92,61.0,82,75,13.87,UY,1603735743
Shaunavon,49.65,-108.42,26.8,90,98,11.59,CA,1603735745
Bethel,41.37,-73.41,52.0,87,90,9.17,US,1603735747
Sinnamary,5.38,-52.95,85.93,66,6,10.74,GF,1603735748
Chabahar,25.29,60.64,69.8,46,0,5.1,IR,1603735508
Sabang,5.89,95.32,82.35,76,63,17.96,ID,1603735750
Hermanus,-34.42,19.23,64.0,83,96,4.0,ZA,1603735752
St. George's,12.06,-61.75,86.0,74,20,14.99,GD,1603735753
Mount Isa,-20.73,139.5,69.8,37,23,11.41,AU,1603735754
Anadyr,64.75,177.48,15.8,85,75,4.47,RU,1603735564
Florø,61.6,5.03,50.0,71,75,11.41,NO,1603735756
Tiznit Province,29.58,-9.5,64.4,55,0,7.47,MA,1603735757
Lanxi,29.22,119.48,61.2,85,36,2.91,CN,1603735759
Aykhal,66.0,111.5,-4.0,91,90,4.47,RU,1603735761
Katsuura,35.13,140.3,60.8,72,20,12.75,JP,1603735762
Singapore,1.29,103.85,82.4,83,75,7.2,SG,1603735566
Sitka,57.05,-135.33,51.8,93,90,21.92,US,1603735765
Mahibadhoo,3.78,72.97,82.71,74,29,7.18,MV,1603735766
Padang,-0.95,100.35,78.35,73,98,3.04,ID,1603735767
Souillac,-20.52,57.52,73.4,78,40,11.41,MU,1603735768
Chokurdakh,70.63,147.92,7.99,96,99,10.58,RU,1603735769
Kumba,4.64,9.45,75.56,83,94,2.21,CM,1603735771
Kolno,53.41,21.93,55.4,87,40,6.93,PL,1603735772
Pacific Grove,36.62,-121.92,64.0,18,1,8.05,US,1603735572
Isangel,-19.55,169.27,72.61,80,5,9.01,VU,1603735774
Linfen,36.09,111.52,63.52,29,97,1.7,CN,1603735775
Severo-Kuril'sk,50.68,156.12,42.85,83,99,5.26,RU,1603735776
At-Bashi,41.17,75.81,36.61,69,100,5.08,KG,1603735777
Miyako,39.64,141.95,46.98,72,0,5.35,JP,1603735778
Sola,-13.88,167.55,79.88,82,85,18.81,VU,1603735779
Asilah,35.47,-6.03,62.6,55,0,10.29,MA,1603735728
Dawlatabad,36.41,64.91,49.96,57,0,0.85,AF,1603735782
Rivière du Rempart,-20.1,57.68,73.99,78,40,11.41,MU,1603735783
Dzhebariki-Khaya,62.22,135.8,13.1,90,97,1.16,RU,1603735784
Berlevåg,70.86,29.09,35.6,80,20,16.11,NO,1603735785
Lüderitz,-26.65,15.16,63.12,70,0,21.54,NA,1603735786
Saint George,37.1,-113.58,43.0,25,1,10.92,US,1603735643
Sinjai,-5.12,120.25,75.85,75,97,4.16,ID,1603735789
Yangi Marg`ilon,40.43,71.72,50.0,44,81,6.93,UZ,1603735790
Hobart,-42.88,147.33,50.0,61,90,3.36,AU,1603735496
Dikson,73.51,80.55,13.64,96,100,14.56,RU,1603735792
Manzhouli,49.6,117.43,25.97,88,35,22.86,CN,1603735795
Itarema,-2.92,-39.92,85.14,62,28,16.51,BR,1603735796
Castro,-24.79,-50.01,77.04,56,99,7.94,BR,1603735797
Ponta Delgada,37.73,-25.67,69.8,83,40,18.34,PT,1603735798
Ostrovnoy,68.05,39.51,33.82,90,100,31.16,RU,1603735800
Faanui,-16.48,-151.75,79.72,77,96,13.85,PF,1603735801
Cape Town,-33.93,18.42,70.0,72,0,12.75,ZA,1603735802
Tadpatri,14.92,78.02,77.88,68,1,4.41,IN,1603735803
Asău,46.43,26.4,53.01,98,50,1.81,RO,1603735804
Sos'va,59.18,61.86,26.38,97,100,14.74,RU,1603735805
Khatanga,71.97,102.5,2.1,94,88,8.97,RU,1603735807
La Rioja,42.25,-2.5,54.0,62,75,8.05,ES,1603735808
Yueyang,29.33,113.09,62.42,64,66,1.03,CN,1603735809
Kapaa,22.08,-159.32,73.4,88,40,5.82,US,1603735810
Mabaruma,8.2,-59.78,79.79,91,97,3.44,GY,1603735811
Sørland,67.67,12.69,46.4,93,75,21.92,NO,1603735812
Iracoubo,5.48,-53.2,85.66,67,3,11.5,GF,1603735816
Nome,64.5,-165.41,35.6,74,90,9.17,US,1603735817
Coquimbo,-29.95,-71.34,59.0,77,75,18.34,CL,1603735818
Lively,46.43,-81.15,35.01,97,90,4.7,CA,1603735819
Rosarito,32.33,-117.03,66.2,63,75,8.05,MX,1603735823
Richards Bay,-28.78,32.04,69.91,84,82,8.79,ZA,1603735824
Kahului,20.89,-156.47,75.99,69,20,3.36,US,1603735635
Sumbe,-11.21,13.84,76.08,85,94,9.08,AO,1603735826
Chimoio,-19.12,33.48,78.8,50,20,11.41,MZ,1603735827
Ust-Tsilma,65.44,52.15,15.46,96,58,2.44,RU,1603735830
West Bay,19.37,-81.42,86.0,79,20,11.41,KY,1603735831
Marrakesh,31.63,-8.01,75.2,33,20,5.82,MA,1603735805
Clyde River,70.47,-68.59,14.0,72,90,9.17,CA,1603735833
Arraial do Cabo,-22.97,-42.03,78.8,69,20,9.17,BR,1603735834
Boli,45.77,130.52,41.43,68,100,4.05,CN,1603735627
Urusha,54.05,122.9,31.3,99,100,8.59,RU,1603735837
Praia da Vitória,38.73,-27.07,75.2,64,20,10.96,PT,1603735839
Ribeira Grande,38.52,-28.7,69.8,83,40,17.22,PT,1603735840
Muros,42.78,-9.06,54.0,90,89,1.01,ES,1603735841
Ternate,0.8,127.4,81.09,75,99,2.19,ID,1603735842
Chimbote,-9.09,-78.58,69.46,68,65,10.98,PE,1603735843
Bredasdorp,-34.53,20.04,64.4,82,98,16.11,ZA,1603735844
Kaitangata,-46.28,169.85,48.0,85,91,8.01,NZ,1603735846
Bathsheba,13.22,-59.52,87.8,70,40,12.75,BB,1603735848
Olafsvik,64.89,-23.71,40.95,77,76,16.22,IS,1603735849
Pangnirtung,66.15,-65.71,21.2,79,75,5.82,CA,1603735850
Saint-Augustin,51.23,-58.65,38.53,60,88,11.54,CA,1603735851
Lagoa,39.05,-27.98,67.71,87,6,24.4,PT,1603735852
Rocha,-34.48,-54.33,58.8,84,100,16.82,UY,1603735854
Atotonilco el Grande,20.28,-98.67,72.5,20,45,4.9,MX,1603735855
Zhoukou,33.63,114.63,61.34,49,90,3.04,CN,1603735856
Mar del Plata,-38.0,-57.56,66.2,32,0,6.93,AR,1603735857
Mahébourg,-20.41,57.7,73.4,78,40,11.41,MU,1603735858
Marzuq,14.4,46.47,66.72,32,0,4.0,YE,1603735859
Beringovskiy,63.05,179.32,30.45,92,0,2.28,RU,1603735861
Thompson,55.74,-97.86,24.8,62,75,11.41,CA,1603735862
Jinji,23.23,110.83,70.45,81,36,2.37,CN,1603735863
Torbay,47.67,-52.73,43.0,48,75,14.99,CA,1603735865
Vila Franca do Campo,37.72,-25.43,69.8,83,40,18.34,PT,1603735866
Pitimbu,-7.47,-34.81,86.0,62,40,11.41,BR,1603735868
Provideniya,64.38,-173.3,28.83,92,31,2.82,RU,1603735869
Saldanha,-33.01,17.94,66.2,59,99,5.82,ZA,1603735870
Novopokrovka,49.84,36.55,48.2,70,0,8.95,UA,1603735871
Carnarvon,-24.87,113.63,69.8,88,0,20.8,AU,1603735873
Flin Flon,54.77,-101.86,21.2,62,20,8.05,CA,1603735875
Palmer,42.16,-72.33,48.99,87,90,4.7,US,1603735876
Balikpapan,-1.27,116.83,75.88,90,94,4.47,ID,1603735614
Elizabeth City,36.29,-76.25,69.01,88,90,11.41,US,1603735841
Hokitika,-42.72,170.97,53.6,93,100,4.65,NZ,1603735880
Hobyo,5.35,48.53,79.72,79,7,8.14,SO,1603735882
Kavieng,-2.57,150.8,82.54,68,79,6.78,PG,1603735883
Fortuna,40.6,-124.16,61.0,28,1,6.93,US,1603735884
Hirara,24.8,125.28,76.28,70,53,15.97,JP,1603735885
Mossamedes,-15.2,12.15,69.69,78,83,6.58,AO,1603735886
Havelock,34.88,-76.9,70.0,88,90,12.75,US,1603735715
San Patricio,28.02,-97.52,87.01,62,75,20.8,US,1603735889
Bagdarin,54.43,113.6,16.93,86,0,6.55,RU,1603735890
Norman Wells,65.28,-126.83,23.0,79,75,14.99,CA,1603735891
Talnakh,69.49,88.4,8.6,92,40,4.47,RU,1603735892
São Filipe,14.9,-24.5,83.08,66,100,12.39,CV,1603735893
Kutum,14.2,24.67,77.7,19,85,13.2,SD,1603735895
Samarai,-10.62,150.67,81.3,83,95,7.63,PG,1603735897
Hambantota,6.12,81.12,79.18,84,35,8.88,LK,1603735898
Giyani,-23.3,30.72,80.08,33,0,3.89,ZA,1603735899
Santa Cruz de la Sierra,-17.8,-63.17,77.0,69,75,17.22,BO,1603735900
Maxixe,-23.86,35.35,77.0,83,20,3.36,MZ,1603735901
Rawson,-43.3,-65.1,73.58,24,44,18.43,AR,1603735877
Beaverlodge,55.22,-119.44,30.2,100,90,5.82,CA,1603735903
Loukhi,66.08,33.04,44.69,94,100,13.76,RU,1603735905
Upernavik,72.79,-56.15,17.06,81,91,5.26,GL,1603735693
Necochea,-38.55,-58.74,63.12,48,0,9.28,AR,1603735907
Volgo-Kaspiyskiy,46.2,47.92,48.2,61,0,2.24,RU,1603735908
Zima,53.92,102.04,27.03,88,98,4.85,RU,1603735909
Terrace Bay,48.78,-87.1,28.4,54,90,4.7,CA,1603735910
Uyuni,-20.46,-66.83,66.54,18,0,16.71,BO,1603735911
Alamosa,37.47,-105.87,19.4,85,90,12.75,US,1603735912
Copacabana,6.35,-75.51,69.8,56,40,6.93,CO,1603735913
Vestmannaeyjar,63.44,-20.27,42.8,81,40,23.04,IS,1603735915
Vejle,55.71,9.54,50.0,87,73,6.93,DK,1603735916
Beloha,-25.17,45.05,70.36,82,0,7.2,MG,1603735917
Airai,-8.93,125.41,61.3,100,92,1.86,TL,1603735918
Podporozh'ye,60.91,34.17,41.85,93,100,8.32,RU,1603735919
Petatlán,17.52,-101.27,91.4,63,40,6.93,MX,1603735920
Gamba,-2.65,10.0,76.86,86,100,7.14,GA,1603735922
Atasū,48.68,71.64,50.58,47,75,21.12,KZ,1603735923
Itatiaia,-22.5,-44.56,78.46,66,15,5.5,BR,1603735924
Belyy Yar,53.6,91.39,41.0,86,40,8.95,RU,1603735925
Colorado Springs,38.83,-104.82,10.0,78,90,8.05,US,1603735875
Noumea,-22.28,166.46,68.0,82,0,2.24,NC,1603735902
Mount Gambier,-37.83,140.77,48.2,81,40,12.75,AU,1603735928
Klaksvík,62.23,-6.59,41.0,75,25,9.17,FO,1603735930
Butembo,0.15,29.28,59.79,91,100,2.24,CD,1603735932
Sangar,63.92,127.47,18.36,97,100,2.19,RU,1603735934
Yerbogachën,61.28,108.01,20.37,90,73,1.32,RU,1603735935
La Sarre,48.8,-79.2,29.35,97,100,8.72,CA,1603735713
Sri Aman,1.24,111.46,71.6,100,100,2.24,MY,1603735773
Berdigestyakh,62.1,126.7,16.41,95,100,6.62,RU,1603735941
Viedma,-40.81,-63.0,81.0,17,0,8.99,AR,1603735942
Bras-Panon,-21.0,55.68,73.4,83,73,6.93,RE,1603735943
Laguna,38.42,-121.42,63.0,14,1,18.34,US,1603735658
Gigmoto,13.78,124.39,78.73,86,100,7.87,PH,1603735946
Phan Thiet,10.93,108.1,76.73,89,100,3.56,VN,1603735947
Vanavara,60.34,102.28,23.0,93,100,2.33,RU,1603735948
Shilong,23.11,113.84,78.01,73,0,6.71,CN,1603735949
Ukiah,39.15,-123.21,68.0,13,1,3.36,US,1603735950
Kimbe,-5.55,150.14,76.1,87,99,2.37,PG,1603735806
Ciudad Guayana,8.35,-62.65,86.72,66,47,5.14,VE,1603735953
Zarechnyy,53.2,45.19,37.0,65,0,3.56,RU,1603735955
Fairbanks,64.84,-147.72,28.99,100,90,4.7,US,1603735905
Darhan,49.49,105.92,28.67,75,31,4.45,MN,1603735957
Cabo San Lucas,22.89,-109.91,90.0,45,5,5.82,MX,1603735958
Visby,57.64,18.3,53.01,93,90,10.29,SE,1603735960
Hīt,33.64,42.83,67.62,24,0,2.24,IQ,1603735961
Paithan,19.48,75.38,74.53,73,38,6.42,IN,1603735962
Morondava,-20.28,44.28,78.51,75,0,13.15,MG,1603735964
Seoul,37.57,126.98,46.4,100,1,1.68,KR,1603735665
Lanzhou,36.06,103.79,43.0,66,100,4.14,CN,1603735961
La Santisima Trinidad,-14.83,-64.9,95.0,53,40,13.87,BO,1603735967
Tarko-Sale,64.92,77.78,6.8,95,20,12.12,RU,1603735968
Quatre Cocos,-20.21,57.76,73.99,78,40,11.41,MU,1603735969
Bambous Virieux,-20.34,57.76,73.99,78,40,11.41,MU,1603735971
Nkhotakota,-12.93,34.3,79.43,65,20,6.08,MW,1603735973
Iranshahr,27.2,60.68,68.0,13,0,4.7,IR,1603735974
Guerrero Negro,27.98,-114.06,72.99,54,46,16.91,MX,1603735975
Turaif,31.67,38.66,73.4,23,0,13.87,SA,1603735976
Malindi,-3.22,40.12,80.6,78,20,13.87,KE,1603735977
Lompoc,34.64,-120.46,66.2,72,1,4.7,US,1603735978
Chiang Klang,19.29,100.86,73.35,82,84,0.74,TH,1603735979
Ekhabi,53.51,142.97,39.43,84,99,11.43,RU,1603735981
Tayshet,55.93,98.0,31.59,99,99,6.62,RU,1603735982
Tasiilaq,65.61,-37.64,33.8,47,100,16.11,GL,1603735983
Ahipara,-35.17,173.17,58.57,94,17,4.03,NZ,1603735984
Saint Paul Harbor,57.79,-152.41,46.4,49,1,12.75,US,1603735985
Semey,50.41,80.23,46.44,53,100,21.39,KZ,1603735986
Yumen,40.28,97.2,31.86,74,100,3.67,CN,1603735988
Bima,-8.47,118.72,77.27,83,87,3.58,ID,1603735989
Selma,36.57,-119.61,59.0,58,40,8.05,US,1603735775
Kyren,51.68,102.14,25.97,85,38,3.27,RU,1603735991
Mahajanga,-15.72,46.32,80.6,69,20,5.82,MG,1603735993
Eyl,7.98,49.82,78.78,79,96,9.86,SO,1603735994
Yeppoon,-23.13,150.73,69.8,94,100,2.24,AU,1603735995
Myitkyina,25.38,97.4,71.69,84,0,1.72,MM,1603735997
Biak,-0.91,122.88,77.34,78,100,4.47,ID,1603735998
Toppenish,46.38,-120.31,35.01,50,1,0.89,US,1603735999
Hualmay,-11.1,-77.61,70.25,66,70,10.65,PE,1603736000
Ballina,-28.87,153.57,68.0,77,90,12.75,AU,1603736002
Los Llanos de Aridane,28.66,-17.92,73.4,60,75,12.75,ES,1603736004
Annau,37.89,58.52,62.6,29,100,4.7,TM,1603736005
Coyhaique,-45.58,-72.07,53.6,54,75,12.75,CL,1603736006
Arman',59.7,150.17,32.34,87,100,13.11,RU,1603736007
Camacha,33.08,-16.33,68.0,64,20,10.29,PT,1603736008
Grado,43.39,-6.07,57.99,62,20,13.87,ES,1603736009
Verkhnyaya Toyma,62.23,45.0,25.39,97,67,4.45,RU,1603736010
Moree,-29.47,149.85,57.2,87,39,9.08,AU,1603736011
Shimoda,34.67,138.95,54.0,92,11,7.23,JP,1603736013
Tianpeng,30.99,103.94,69.01,1,100,4.25,CN,1603736014
Castelo do Piauí,-5.32,-41.55,99.23,28,68,3.31,BR,1603736015
Pisco,-13.7,-76.22,70.0,77,0,11.41,PE,1603735791
Weligama,5.97,80.42,78.04,89,2,6.33,LK,1603736017
Kajaani,64.23,27.73,48.2,93,90,12.75,FI,1603736019
São Gabriel da Cachoeira,-0.13,-67.09,95.59,43,99,3.06,BR,1603736021
Najrān,17.49,44.13,71.6,18,0,4.7,SA,1603736022
Kailua,21.4,-157.74,77.0,88,40,2.68,US,1603735921
Cherskiy,68.75,161.3,5.32,92,19,5.5,RU,1603736024
Sovetskiy,61.36,63.58,26.04,95,100,13.49,RU,1603736025
Hefei,31.86,117.28,62.01,87,0,4.47,CN,1603736029
Kargasok,59.06,80.86,30.15,98,100,13.89,RU,1603736030
Kloulklubed,7.04,134.26,77.0,88,75,6.71,PW,1603736031
Robertsport,6.75,-11.37,81.12,81,77,10.92,LR,1603736032
Birobidzhan,48.8,132.95,35.37,85,22,3.47,RU,1603736033
Gawler,-34.6,138.73,53.01,83,95,7.38,AU,1603735987
Touros,-5.2,-35.46,86.0,62,40,13.87,BR,1603736035
Saint-Pierre,-21.34,55.48,73.4,78,0,3.36,RE,1603736036
Karratha,-20.74,116.85,71.29,76,49,13.65,AU,1603736038
San Cristobal,7.77,-72.22,89.6,52,40,11.41,VE,1603736039
Oranjemund,-28.55,16.43,59.36,86,1,12.48,NA,1603736040
Sakakah,29.97,40.21,80.6,8,0,10.29,SA,1603736041
Pombal,-6.77,-37.8,100.6,19,0,8.57,BR,1603736042
Sabaudia,41.3,13.03,66.99,83,23,4.0,IT,1603736043
Hamilton,39.18,-84.53,51.8,81,90,6.15,US,1603736045
Aswān,24.09,32.91,83.32,27,0,9.57,EG,1603736046
Skjervøy,70.03,20.97,33.8,80,0,17.22,NO,1603736047
Broken Hill,-31.95,141.43,50.0,93,11,3.36,AU,1603735851
Tabou,4.42,-7.35,78.85,87,72,7.58,CI,1603736049
Havre-St-Pierre,50.23,-63.6,35.6,59,90,10.29,CA,1603736050
Requena,39.49,-1.1,51.01,51,0,11.43,ES,1603736051
Khandyga,62.67,135.6,12.51,87,93,2.06,RU,1603736053
Chitral,35.85,71.79,54.66,35,0,1.68,PK,1603736054
Cravo Norte,6.3,-70.2,88.68,63,81,7.83,CO,1603736056
Kangaatsiaq,68.31,-53.46,24.44,90,100,9.33,GL,1603736058
Mildura,-34.2,142.15,55.4,82,90,8.05,AU,1603736059
Shenjiamen,29.96,122.3,64.74,70,1,6.53,CN,1603736061
Godda,24.83,87.22,70.03,52,20,3.44,IN,1603736062
Big Spring,32.25,-101.48,32.0,85,90,17.22,US,1603736063
Tortolì,39.93,9.66,68.0,68,40,23.04,IT,1603736064
Constitución,-35.33,-72.42,59.61,55,65,18.9,CL,1603736065
Teknāf,20.86,92.31,78.12,85,31,4.59,BD,1603736068
São José da Coroa Grande,-8.9,-35.15,81.36,70,22,16.28,BR,1603736069
Leer,8.3,30.14,74.93,84,99,2.51,SS,1603736070
Sambava,-14.27,50.17,73.76,81,4,8.72,MG,1603736071
Nishihara,26.18,127.76,71.6,68,20,3.36,JP,1603736072
Barranca,-10.75,-77.77,69.08,68,77,11.3,PE,1603736073
Vostok,46.49,135.88,27.86,99,0,3.36,RU,1603736065
Walvis Bay,-22.96,14.51,60.8,77,2,8.05,NA,1603736076
Yuanping,38.72,112.76,47.21,47,24,6.93,CN,1603736077
Meulaboh,4.14,96.13,77.38,86,98,4.36,ID,1603736078
Alyangula,-13.85,136.42,77.0,88,100,1.12,AU,1603736080
Honiara,-9.43,159.95,75.2,94,20,2.24,SB,1603736081
Cururupu,-1.83,-44.87,89.91,53,46,7.74,BR,1603736082
Maglavit,44.03,23.1,57.0,87,0,3.6,RO,1603736085
Husavik,66.04,-17.34,37.4,69,75,6.93,IS,1603736086
La Vista,41.18,-96.03,30.2,54,75,8.05,US,1603735925
Aksu,41.12,80.26,46.99,47,61,3.29,CN,1603736088
Cayenne,4.93,-52.33,89.6,55,25,11.41,GF,1603736089
Sarakhs,36.54,61.16,60.8,29,0,1.14,IR,1603736090
Lethem,3.38,-59.8,95.18,40,71,8.03,GY,1603736092
Kapoeta,4.77,33.59,83.28,49,51,6.76,SS,1603736093
Margate,51.38,1.39,51.01,78,34,1.99,GB,1603736094
Acapulco de Juárez,16.86,-99.89,84.2,79,90,4.81,MX,1603735911
Yangjiang,21.85,111.97,70.41,86,71,3.62,CN,1603736044
Jieshi,22.81,115.83,71.65,79,82,16.69,CN,1603736098
Boyolangu,-8.12,111.89,76.01,89,100,5.64,ID,1603736101
Dmitriyevka,54.75,55.33,33.8,74,75,20.13,RU,1603736103
Boissevain,49.23,-100.06,19.4,62,1,19.46,CA,1603735827
Gravelbourg,49.88,-106.55,23.67,91,97,10.76,CA,1603736106
Brae,60.4,-1.35,48.2,93,75,4.7,GB,1603736107
Tulsīpur,28.13,82.3,63.03,51,0,4.99,NP,1603736109
Paamiut,61.99,-49.67,32.47,91,100,31.74,GL,1603736110
Cuamba,-14.8,36.54,79.16,47,95,4.16,MZ,1603736111
Sopron,47.69,16.59,57.0,76,0,11.41,HU,1603736113
Houma,29.6,-90.72,81.0,61,75,6.93,US,1603736114
Alta Floresta,-9.88,-56.09,90.14,48,91,2.71,BR,1603736116
Pierre,44.37,-100.35,10.4,72,1,8.05,US,1603735926
Adrar,20.5,-10.07,93.88,10,0,7.11,MR,1603736118
Cockburn Town,21.46,-71.14,83.41,79,92,18.34,TC,1603736119
Maragogi,-9.01,-35.22,81.23,70,24,16.4,BR,1603736121
Harper,4.38,-7.72,78.76,87,72,7.45,LR,1603736122
Pemangkat,1.17,108.97,77.11,86,100,6.85,ID,1603736123
Rafsanjān,30.41,55.99,55.24,38,0,1.77,IR,1603735922
Port-Cartier,50.03,-66.87,34.0,77,90,4.7,CA,1603736126
Gallup,35.53,-108.74,28.4,86,90,10.29,US,1603735921
Wanning,18.8,110.4,73.22,83,68,11.61,CN,1603736128
High Rock,26.62,-78.28,84.2,83,40,9.17,BS,1603736130
Bambanglipuro,-7.95,110.28,76.89,87,100,5.95,ID,1603736131
Siuna,13.73,-84.78,82.13,86,100,2.21,NI,1603736132
Riverton,40.52,-111.94,32.0,32,0,5.99,US,1603736134
Doha,25.29,51.53,84.2,61,0,2.24,QA,1603736038
Kaeo,-35.1,173.78,57.99,96,34,2.19,NZ,1603736136
Nanortalik,60.14,-45.24,36.3,83,100,6.51,GL,1603736137
Hofn,64.25,-15.21,37.4,59,0,11.41,IS,1603736138
Santa Maria da Vitória,-13.39,-44.19,91.47,40,55,8.03,BR,1603736139
Karaton,-6.34,106.1,78.01,88,20,4.7,ID,1603736141
Tarbagatay,51.48,107.36,14.0,78,39,2.24,RU,1603736142
Diffa,13.32,12.61,83.75,16,13,7.67,NE,1603736143
Kisangani,0.52,25.2,77.09,71,80,1.97,CD,1603736145
Krutinka,56.01,71.51,45.16,89,100,17.69,RU,1603736146
Cassilândia,-19.11,-51.73,88.92,48,97,6.38,BR,1603736147
Lata,40.16,-8.33,57.99,81,66,3.2,PT,1603736148
Nyaunglebin,17.95,96.73,75.13,94,38,1.14,MM,1603736149
Nhulunbuy,-12.23,136.77,78.8,83,40,4.7,AU,1603736121
Timrå,62.49,17.33,45.0,100,20,4.7,SE,1603736152
Vangaindrano,-23.35,47.6,70.07,82,0,5.26,MG,1603736153
Verkhovazh'ye,60.75,42.05,30.07,95,69,6.13,RU,1603736154
Antsohihy,-14.88,47.99,78.94,69,18,2.04,MG,1603736155
Kostomuksha,64.57,30.58,43.92,92,100,12.39,RU,1603736156
Zyryanka,65.75,150.85,5.5,91,0,5.66,RU,1603735929
Panzhihua,26.59,101.71,66.83,73,26,1.05,CN,1603736158
Talara,-4.58,-81.27,78.8,61,0,11.41,PE,1603736160
Tingi,-11.3,35.03,68.97,67,26,6.31,TZ,1603736161
Beroroha,-21.67,45.17,83.43,40,74,8.63,MG,1603736164
Gombong,-7.61,109.51,62.01,89,100,3.65,ID,1603736165
Bubaque,11.28,-15.83,83.39,80,0,11.9,GW,1603736167
Bilibino,68.05,166.44,9.27,94,100,2.91,RU,1603736095
Alor Gajah,2.38,102.21,80.6,83,20,1.12,MY,1603736169
Kedrovyy,56.17,91.82,35.6,93,40,2.24,RU,1603736170
Igrim,63.19,64.42,21.9,96,100,10.96,RU,1603736173
Chickasha,35.05,-97.94,32.0,98,90,12.75,US,1603736174
Bay City,43.59,-83.89,42.01,80,90,6.93,US,1603735941
Iqaluit,63.75,-68.51,15.8,72,75,4.7,CA,1603736177
Kitgum,3.28,32.89,71.69,84,93,2.17,UG,1603736180
North Bend,43.41,-124.22,51.01,45,1,5.82,US,1603736099
Tabas,33.6,56.92,66.2,19,0,2.24,IR,1603736184
Staunton,38.15,-79.07,66.99,77,1,7.18,US,1603735973
Sur,22.57,59.53,73.6,63,0,3.49,OM,1603736186
Martapura,-3.42,114.85,73.4,100,88,2.24,ID,1603736187
Santo Niño,6.43,124.7,74.34,82,100,1.3,PH,1603736189
Shakawe,-18.37,21.85,82.56,15,44,5.82,BW,1603736190
Fes,34.04,-5.0,55.4,93,75,5.82,MA,1603736191
Westport,41.14,-73.36,55.0,81,90,11.41,US,1603736174
Gympie,-26.19,152.66,66.0,98,94,1.92,AU,1603736187
Nong Han,17.36,103.11,72.0,92,94,3.33,TH,1603736195
Okhotsk,59.38,143.3,28.36,81,0,17.92,RU,1603736197
Santiago de Cao,-7.96,-79.24,64.4,77,61,12.75,PE,1603736198
Dunedin,-45.87,170.5,48.99,82,70,4.76,NZ,1603736199
Chapais,49.78,-74.85,30.2,86,90,9.17,CA,1603736200
Dul'durga,50.68,113.59,21.87,81,0,11.68,RU,1603735928
Nador,35.17,-2.93,64.4,55,20,13.87,MA,1603736202
Corowa,-36.03,146.38,52.0,78,91,5.97,AU,1603736203
São Félix do Xingu,-6.64,-51.99,97.54,36,35,3.11,BR,1603736205
Praia,14.92,-23.51,84.2,70,75,17.22,CV,1603735967
Kushima,31.46,131.23,60.4,74,73,3.89,JP,1603736207
Teya,60.38,92.63,16.21,95,30,2.66,RU,1603736208
Kysyl-Syr,63.9,122.76,9.66,92,100,7.87,RU,1603736209
Pedregulho,-20.26,-47.48,81.18,53,48,8.32,BR,1603736210
Koungou,-12.73,45.2,78.8,78,75,3.36,YT,1603736211
Cam Ranh,11.92,109.16,80.6,94,40,2.24,VN,1603736213
Ürümqi,43.8,87.6,41.0,56,0,4.47,CN,1603736171
Sompeta,18.93,84.6,77.31,70,0,4.29,IN,1603736215
Chaupāl,30.95,77.58,41.45,62,0,4.47,IN,1603736216
Muroto-misakicho,33.28,134.15,65.39,61,51,7.61,JP,1603736217
Ruwi,23.6,58.55,77.0,78,0,2.24,OM,1603736218
Kenai,60.55,-151.26,44.01,87,90,23.04,US,1603736219
Bato,13.35,123.37,75.72,91,100,5.26,PH,1603736223
Sittwe,20.15,92.9,80.51,81,50,4.05,MM,1603736224
Prince Rupert,54.32,-130.32,50.0,87,90,13.87,CA,1603736225
Bilma,18.69,12.92,76.12,19,0,4.27,NE,1603736227
Sarangani,5.4,125.46,83.52,71,100,3.8,PH,1603736228
Tarandacuao,20.0,-100.53,79.0,43,20,3.11,MX,1603736229
Novaya Ladoga,60.1,32.3,46.0,86,100,13.27,RU,1603736230
Nelson Bay,-32.72,152.15,59.0,100,90,10.29,AU,1603736231
Nipawin,53.37,-104.0,23.0,57,1,8.05,CA,1603736102
Nuuk,64.18,-51.72,30.2,68,75,8.05,GL,1603736236
Hohhot,40.81,111.65,26.6,42,0,4.47,CN,1603736237
Bariloche,-41.15,-71.31,48.2,58,40,21.92,AR,1603736238
Govlyar,40.95,45.73,59.0,72,40,6.93,AZ,1603736239
Bosaso,11.28,49.18,76.39,63,1,3.2,SO,1603736241
Ola,59.58,151.28,33.13,84,100,14.14,RU,1603736243
Poum,-20.23,164.02,75.76,81,6,15.41,NC,1603736244
Dhangadhi,28.71,80.6,65.8,42,0,2.17,NP,1603736245
Tuy Hoa,13.08,109.3,75.78,88,100,5.61,VN,1603736061
Bellevue,47.61,-122.2,45.0,57,90,5.82,US,1603735904
Mananara,-16.17,49.77,70.25,83,0,3.74,MG,1603736248
Kalabo,-14.97,22.68,82.45,18,41,2.1,ZM,1603736250
Camopi,3.17,-52.32,93.42,43,55,5.19,GF,1603736251
Praia,14.92,-23.51,82.4,69,75,18.34,CV,1603736252
Port Blair,11.67,92.75,79.9,82,55,5.17,IN,1603735992
Saryg-Sep,51.5,95.6,21.24,92,35,2.8,RU,1603736254
Lubbock,33.6,-101.83,27.0,92,90,17.22,US,1603736145
Yang Talat,16.4,103.37,71.6,100,75,3.36,TH,1603736257
Mehamn,71.04,27.85,33.8,80,0,20.8,NO,1603736259
Santa Luzia,-19.77,-43.85,80.6,51,75,6.93,BR,1603736260
Tazmalt,36.39,4.4,60.8,72,75,8.05,DZ,1603736261
Port Keats,-14.25,129.55,77.49,87,91,10.56,AU,1603736262
Tanta,30.79,31.0,72.81,74,8,4.74,EG,1603736172
Mahanje,-9.93,35.33,69.06,76,63,3.44,TZ,1603736264
Nemuro,43.32,145.57,50.86,70,83,8.25,JP,1603735999
Faya,18.39,42.45,69.8,10,0,11.41,SA,1603736077
Te Karaka,-38.47,177.87,57.54,81,77,1.9,NZ,1603736268
Porto-Novo,6.5,2.6,82.4,83,40,11.41,BJ,1603736269
Goderich,43.75,-81.72,46.99,79,99,7.87,CA,1603736101
Springbok,-29.66,17.89,62.31,56,3,4.5,ZA,1603736271
Nantucket,41.28,-70.1,57.2,82,90,12.75,US,1603736272
Santa Catarina de Tepehuanes,25.35,-105.73,75.31,28,7,15.95,MX,1603736273
Marsh Harbour,26.54,-77.06,83.12,72,18,9.44,BS,1603736274
Leningradskiy,69.38,178.42,26.08,98,100,5.32,RU,1603736276
Srednekolymsk,67.45,153.68,7.02,91,0,7.7,RU,1603736277
Delmiro Gouveia,-9.39,-38.0,105.55,16,0,3.85,BR,1603736278
College,64.86,-147.8,28.99,100,90,4.7,US,1603736146
Yokadouma,3.52,15.05,73.13,87,24,1.28,CM,1603736282
Coruripe,-10.13,-36.18,82.72,68,6,20.69,BR,1603736283
Yaan,7.38,8.57,79.29,78,34,5.44,NG,1603736285
Ayacucho,-13.16,-74.22,75.2,31,40,3.36,PE,1603736160
Morros,-9.45,-46.3,93.52,36,53,3.33,BR,1603736287
Cidreira,-30.18,-50.21,73.38,78,100,13.29,BR,1603736288
Omboué,-1.57,9.26,77.61,83,99,8.97,GA,1603736289
Auki,-8.77,160.7,77.4,84,99,2.93,SB,1603736290
Amapá,1.0,-52.0,96.33,32,38,3.49,BR,1603736291
Bandarbeyla,9.49,50.81,77.32,73,74,15.1,SO,1603736293
Lázaro Cárdenas,17.96,-102.2,86.5,68,66,5.32,MX,1603736294
Dingle,11.0,122.67,75.94,92,100,6.85,PH,1603736296
Ouallam,14.32,2.09,90.64,11,15,7.38,NE,1603736297
Batagay,67.63,134.63,4.39,88,100,1.97,RU,1603736298
Umm Hājar,13.3,19.7,88.65,15,14,9.35,TD,1603736300
Indramayu,-6.33,108.32,80.06,81,100,6.96,ID,1603736301
Ushumun,52.78,126.53,32.34,95,100,7.27,RU,1603736302
Kroya,-7.63,109.25,62.01,89,100,4.94,ID,1603736303
San Quintín,30.48,-115.95,68.4,55,2,7.47,MX,1603736304
Kshenskiy,51.84,37.71,47.86,80,98,5.1,RU,1603736305
Grushevskaya,47.44,39.95,51.8,66,0,15.66,RU,1603736307
Lander,42.83,-108.73,19.4,65,1,3.36,US,1603736308
Melfort,52.87,-104.62,23.0,57,1,8.05,CA,1603736309
Lincoln,40.8,-96.67,28.99,58,1,12.75,US,1603736152
Sørkjosen,69.8,20.93,32.0,71,0,19.46,NO,1603736311
Egvekinot,66.32,-179.17,19.56,95,38,0.96,RU,1603736312
La Romana,18.43,-68.97,89.6,66,40,6.93,DO,1603736313
Abomsa,9.98,39.98,69.64,27,1,4.68,ET,1603736315
Elko,41.0,-115.5,34.0,44,32,5.01,US,1603736115
Port Augusta,-32.5,137.77,55.4,87,90,5.82,AU,1603736095
Togur,58.36,82.83,31.82,99,100,7.76,RU,1603736320
Istanbul,41.04,28.98,66.2,82,0,6.93,TR,1603736323
Mana,5.66,-53.78,87.06,63,22,11.7,GF,1603736325
Santa Isabel Rio Negro,-0.41,-65.02,91.51,54,100,5.03,BR,1603736326
Ponta do Sol,32.67,-17.1,66.99,77,75,9.17,PT,1603736327
Palmas,-10.21,-48.36,89.6,62,40,5.82,BR,1603736328
Plácido de Castro,-10.34,-67.19,99.39,35,38,5.64,BR,1603736329
Aklavik,68.22,-135.01,14.0,92,90,8.05,CA,1603736069
Mackay,-21.15,149.2,69.8,94,75,5.82,AU,1603736151
Manokwari,-0.87,134.08,78.8,75,3,4.38,ID,1603736043
Tyrma,50.08,132.17,30.99,91,92,1.99,RU,1603736334
Antalaha,-14.9,50.28,71.51,81,1,6.85,MG,1603736335
Camaquã,-30.85,-51.81,72.34,88,99,3.53,BR,1603736300
Lubao,14.92,120.55,78.8,100,90,2.24,PH,1603736337
Churāchāndpur,24.33,93.67,63.86,97,0,0.69,IN,1603736339
Qom,34.64,50.88,57.76,35,0,2.42,IR,1603736340
Naze,28.37,129.48,64.4,88,40,2.24,JP,1603736342
Ucluelet,48.93,-125.55,46.0,81,90,4.7,CA,1603736343
Izumo,35.37,132.77,48.2,100,20,4.7,JP,1603736344
Pisticci,40.39,16.56,69.8,77,5,11.41,IT,1603736346
Lavrentiya,65.58,-171.0,30.04,91,31,4.54,RU,1603736081
High Prairie,55.43,-116.49,29.68,92,100,8.59,CA,1603736349
Whitehorse,60.72,-135.05,41.0,78,75,19.46,CA,1603736350
Francisco Beltrão,-26.08,-53.05,74.05,81,100,12.33,BR,1603736351
Broome,42.25,-75.83,57.0,100,90,6.93,US,1603736085
Glenluce,54.88,-4.81,48.99,81,19,4.0,GB,1603736354
Watertown,42.37,-71.18,55.4,76,90,9.17,US,1603736276
Pandan,14.05,124.17,78.73,86,100,8.05,PH,1603736358
Punta Alta,-38.88,-62.07,74.97,24,0,8.66,AR,1603736359
Pedernales,18.04,-71.74,87.8,79,75,13.87,DO,1603736360
Malatya Province,38.5,38.0,48.2,57,0,5.82,TR,1603736361
Port Hardy,50.7,-127.42,42.8,100,90,3.36,CA,1603736356
